City_ID,City,Lat,Lng,Max Temp,Humidity,Cloudiness,Wind Speed,Country,Date
0,georgetown,5.4112,100.3354,79.95,91,20,2.3,MY,1715896771
1,longyearbyen,78.2186,15.6401,28.24,54,40,10.36,SJ,1715896907
2,ola,59.5833,151.2833,41.14,86,32,2.64,RU,1715897448
3,puerto ayora,-0.7393,-90.3518,84.16,93,27,3.0,EC,1715896916
4,ouadda,8.0777,22.4007,76.44,55,13,2.3,CF,1715897448
5,uturoa,-16.7333,-151.4333,80.44,73,90,23.6,PF,1715896908
6,dudinka,69.4058,86.1778,-1.32,100,100,3.0,RU,1715896916
7,fort st. john,56.2499,-120.8529,42.69,81,100,11.5,CA,1715897167
8,anadyr,64.75,177.4833,23.5,67,40,8.95,RU,1715896914
9,ippy,6.2679,21.2247,77.52,65,24,3.31,CF,1715897449
10,wailua homesteads,22.0669,-159.378,78.13,77,100,13.8,US,1715896916
11,caleta de carquin,-11.0925,-77.6267,68.07,82,39,11.61,PE,1715897449
12,yellowknife,62.456,-114.3525,52.41,53,75,3.44,CA,1715896875
13,port-aux-francais,-49.35,70.2167,44.33,95,100,21.92,TF,1715896906
14,kulunda,52.566,78.9385,48.04,46,64,2.8,RU,1715897449
15,adamstown,-25.066,-130.1015,73.4,76,100,16.2,PN,1715896906
16,bethel,41.3712,-73.414,62.96,83,100,10.36,US,1715896911
17,badger,64.8,-147.5333,61.99,31,47,1.01,US,1715896914
18,goundam,16.4145,-3.6708,86.04,43,100,2.19,ML,1715897449
19,albany,42.6001,-73.9662,71.78,73,100,3.98,US,1715896906
20,al mutayrifi,25.4788,49.5576,88.14,21,22,10.0,SA,1715897449
21,klyuchi,52.2667,79.1667,48.16,49,18,1.01,RU,1715896907
22,saipan,15.1355,145.701,84.9,70,40,14.97,MP,1715896631
23,karratha,-20.7377,116.8463,74.62,53,4,10.22,AU,1715896935
24,bredasdorp,-34.5322,20.0403,61.86,82,53,9.86,ZA,1715896906
25,edinburgh of the seven seas,-37.0676,-12.3116,61.72,87,10,27.69,SH,1715896907
26,waitangi,-43.9535,-176.5597,52.83,92,95,5.01,NZ,1715896907
27,stephenville,32.2207,-98.2023,68.25,88,40,4.61,US,1715897267
28,karaman,37.0833,33.25,57.27,54,78,6.33,TR,1715897449
29,thompson,55.7435,-97.8558,57.36,62,75,11.5,CA,1715896907
30,port macquarie,-31.4333,152.9167,57.88,86,89,4.76,AU,1715897435
31,marsa alam,25.0757,34.8918,79.88,43,0,18.25,EG,1715896936
32,thunder bay,48.4001,-89.3168,44.51,93,100,11.5,CA,1715897225
33,sirte,31.2089,16.5887,94.69,13,78,26.15,LY,1715897450
34,new norfolk,-42.7826,147.0587,48.7,90,93,3.31,AU,1715896918
35,muroto-misakicho,33.2833,134.15,61.86,58,3,8.7,JP,1715897450
36,ribeira grande,38.5167,-28.7,63.77,83,93,10.0,PT,1715896912
37,grytviken,-54.2811,-36.5092,29.73,88,88,7.02,GS,1715896758
38,villa la angostura,-40.7617,-71.6463,36.21,92,93,1.72,AR,1715896824
39,bilibino,68.0546,166.4372,19.26,74,100,10.31,RU,1715896909
40,mount pleasant,32.7941,-79.8626,85.01,73,75,8.05,US,1715897387
41,tambopata,-12.7333,-69.1833,73.29,88,75,4.61,PE,1715897450
42,hithadhoo,-0.6,73.0833,83.39,79,100,17.0,MV,1715896906
43,ancud,-41.8697,-73.8203,48.69,84,99,5.41,CL,1715896820
44,port elizabeth,-33.918,25.5701,64.31,85,0,24.16,ZA,1715896919
45,lihue,21.9789,-159.3672,78.75,77,100,13.8,US,1715896911
46,rifle,39.5347,-107.7831,75.79,16,0,3.44,US,1715897167
47,bikenibeu village,1.3673,173.1241,85.96,79,40,8.05,KI,1715896936
48,avarua,-21.2078,-159.775,75.25,88,75,16.11,CK,1715896913
49,greytown,-29.0642,30.5928,59.92,50,0,2.98,ZA,1715897450
50,les cayes,18.2,-73.75,84.65,70,40,7.65,HT,1715896909
51,barcelos,41.5388,-8.6151,57.34,94,100,2.46,PT,1715897450
52,alamar,23.1583,-82.2769,91.63,54,0,6.73,CU,1715897450
53,palmer,42.1584,-72.3287,66.81,62,75,9.22,US,1715897154
54,fortuna,40.5982,-124.1573,56.98,91,100,11.5,US,1715896917
55,taksimo,56.3444,114.8794,37.4,57,82,3.51,RU,1715897451
56,gadzhiyevo,69.2551,33.3362,33.66,86,99,1.88,RU,1715896917
57,tiksi,71.6872,128.8694,13.82,93,68,13.02,RU,1715896909
58,blackmans bay,-43.0167,147.3167,47.52,92,90,11.41,AU,1715896909
59,enewetak,11.3474,162.3373,81.5,82,100,17.02,MH,1715896920
60,usinsk,65.9939,57.5281,33.08,85,100,15.99,RU,1715897451
61,acapulco de juarez,16.8634,-99.8901,87.62,66,0,12.66,MX,1715897451
62,howard springs,-12.497,131.047,75.11,93,54,4.9,AU,1715896925
63,aasiaat,68.7098,-52.8699,20.1,80,15,7.36,GL,1715896931
64,nemuro,43.3236,145.575,45.36,98,100,19.53,JP,1715896909
65,minas de marcona,-15.2119,-75.1103,61.11,80,66,15.5,PE,1715897451
66,chernomorskoye,45.5039,32.6997,52.11,82,85,11.18,UA,1715897451
67,juankoski,63.0667,28.35,49.96,76,100,4.94,FI,1715897451
68,hobyo,5.3505,48.5268,83.53,78,78,23.53,SO,1715897451
69,ilulissat,69.2167,-51.1,26.62,50,4,8.05,GL,1715896907
70,petropavlovsk-kamchatsky,53.0452,158.6483,57.79,60,0,15.99,RU,1715896908
71,teknaf,20.8624,92.3058,82.94,86,47,4.68,BD,1715897451
72,afaahiti,-17.75,-149.2833,82.27,75,80,19.51,PF,1715896917
73,szombathely,47.2309,16.6216,58.19,91,100,12.26,HU,1715897451
74,nuku'alofa,-21.1333,-175.2,79.14,83,75,13.8,TO,1715896910
75,panevezys,55.7333,24.35,51.15,79,26,0.98,LT,1715897384
76,nema,57.5067,50.5011,49.32,92,100,9.82,RU,1715896928
77,port blair,11.6667,92.75,82.44,89,20,2.3,IN,1715897451
78,tsiombe,-25.3,45.4833,69.55,89,0,5.28,MG,1715896914
79,college,64.8569,-147.8028,62.08,37,65,1.99,US,1715896911
80,puerto natales,-51.7236,-72.4875,45.05,70,0,8.05,CL,1715896744
81,sumusta as sultani,28.9167,30.85,75.74,31,0,9.22,EG,1715897452
82,papatowai,-46.5619,169.4708,47.05,65,73,7.07,NZ,1715896910
83,jamestown,42.097,-79.2353,71.24,64,75,8.05,US,1715896898
84,ust'-ordynskiy,52.805,104.7508,41.34,49,99,10.45,RU,1715897452
85,utrik,11.2278,169.8474,81.21,74,92,20.74,MH,1715896911
86,trairi,-3.2778,-39.2689,80.04,80,57,10.04,BR,1715897309
87,tamanrasset,22.785,5.5228,85.91,13,40,6.91,DZ,1715897452
88,udachny,66.4167,112.4,25.45,94,94,17.4,RU,1715896902
89,iqaluit,63.7506,-68.5145,28.13,79,75,6.91,CA,1715896905
90,remire-montjoly,4.9167,-52.2667,84.24,84,20,4.61,GF,1715896913
91,fort bragg,35.139,-79.006,82.24,56,75,8.05,US,1715897282
92,maputo,-25.9653,32.5892,66.27,81,0,6.4,MZ,1715897452
93,nogliki,51.8333,143.1667,43.34,78,76,1.99,RU,1715897452
94,fraserburgh,57.6874,-2.0184,52.43,94,97,8.93,GB,1715897452
95,port mathurin,-19.6833,63.4167,76.28,75,81,26.6,MU,1715896906
96,isafjordur,66.0755,-23.124,34.81,97,99,3.8,IS,1715896908
97,west island,-12.1568,96.8225,80.58,89,40,12.66,CC,1715896906
98,olonkinbyen,70.9221,-8.7187,28.31,88,100,19.82,SJ,1715896907
99,island harbour,50.724,-1.2758,56.21,69,12,2.33,GB,1715897452
100,yazoo city,32.8551,-90.4056,82.9,58,99,4.54,US,1715897452
101,selfoss,63.9331,-20.9971,41.04,74,53,7.63,IS,1715897452
102,lebu,-37.6167,-73.65,51.03,83,5,2.35,CL,1715896916
103,itamaraca,-7.7478,-34.8256,82.45,77,10,8.79,BR,1715897452
104,ghat,24.9647,10.1728,92.34,8,93,4.47,LY,1715896926
105,caburan,5.9181,125.6411,77.47,82,88,9.08,PH,1715897452
106,champerico,14.3,-91.9167,95.54,65,35,7.96,GT,1715896912
107,muli,2.9167,73.5667,84.29,78,100,17.87,MV,1715897453
108,musaffah,24.3458,54.5024,90.95,33,0,6.91,AE,1715897453
109,mil'kovo,55.6078,37.7956,59.4,95,100,6.98,RU,1715896912
110,san antonio de pale,-1.4014,5.6325,80.56,90,97,12.1,GQ,1715896910
111,toungo,8.1167,12.05,74.79,91,100,4.09,NG,1715897453
112,hawaiian paradise park,19.5933,-154.9731,80.87,82,17,7.0,US,1715896912
113,woolgoolga,-30.1106,153.2007,60.67,72,70,4.85,AU,1715897453
114,nadi,-17.8,177.4167,86.0,66,40,6.91,FJ,1715897180
115,prince george,53.9166,-122.753,52.29,72,100,4.0,CA,1715897453
116,rio grande,-32.035,-52.0986,53.71,67,97,4.03,BR,1715896668
117,an nuhud,12.7,28.4333,81.48,11,40,15.97,SD,1715897423
118,tasova,40.7597,36.3225,47.16,96,11,1.41,TR,1715897453
119,vorgashor,67.5833,63.95,23.81,94,96,4.16,RU,1715896918
120,chulakkurgan,43.765,69.1814,62.49,72,50,2.01,KZ,1715897453
121,udaipura,23.0833,78.5,90.95,36,68,7.45,IN,1715897297
122,st. john's,47.5649,-52.7093,45.16,94,100,10.36,CA,1715896732
123,konarka,19.9,86.1167,84.6,78,93,12.62,IN,1715897453
124,newman,37.3138,-121.0208,89.06,38,0,4.0,US,1715896906
125,belyy yar,53.6039,91.3903,33.69,80,0,2.24,RU,1715897453
126,harper,4.375,-7.7169,79.5,88,100,4.85,LR,1715896912
127,aparecida do taboado,-20.0867,-51.0936,79.07,37,3,3.42,BR,1715897453
128,marsabit,2.3284,37.9899,68.56,74,91,14.2,KE,1715897453
129,saldanha,-33.0117,17.9442,64.45,90,12,5.57,ZA,1715896931
130,tommot,58.9564,126.2925,39.49,77,100,12.91,RU,1715896937
131,kruisfontein,-34.0033,24.7314,60.22,60,1,14.16,ZA,1715897454
132,nar'yan-mar,67.6713,53.087,18.14,97,63,8.48,RU,1715896910
133,ciudad acuna,29.3232,-100.9522,102.49,20,0,8.05,MX,1715897406
134,punta arenas,-53.15,-70.9167,44.71,76,0,13.8,CL,1715896648
135,vanimo,-2.6741,141.3028,78.42,91,100,3.8,PG,1715897454
136,tarko-sale,64.9225,77.785,27.63,86,86,15.61,RU,1715897454
137,soavinandriana,-19.1667,46.7333,53.58,85,23,5.86,MG,1715897454
138,thames,-37.1333,175.5333,56.98,76,12,3.24,NZ,1715897454
139,port-vila,-17.7338,168.3219,74.8,94,75,9.22,VU,1715897454
140,bezenchuk,52.982,49.4333,47.66,61,94,3.91,RU,1715897454
141,sambava,-14.2667,50.1667,75.25,88,100,14.5,MG,1715896919
142,pontianak,-0.0333,109.3333,78.78,100,100,5.75,ID,1715897454
143,nikol'sk,53.7189,46.0712,41.58,88,14,6.15,RU,1715897454
144,mont-dore,-22.2833,166.5833,75.99,99,26,9.69,NC,1715897454
145,rundu,-17.9333,19.7667,56.34,36,0,6.15,NA,1715897454
146,kapuskasing,49.4169,-82.4331,66.29,32,75,10.36,CA,1715896902
147,hermanus,-34.4187,19.2345,62.6,82,53,10.25,ZA,1715896912
148,kanash,55.5086,47.4956,44.46,90,62,8.55,RU,1715897455
149,horta,38.5333,-28.6333,63.01,83,94,10.0,PT,1715896928
150,sayansk,54.1088,102.1648,37.2,59,98,8.23,RU,1715897455
151,margaret river,-33.95,115.0667,56.14,86,0,10.8,AU,1715896906
152,invercargill,-46.4,168.35,42.73,76,81,7.74,NZ,1715896920
153,ciudad bolivar,8.1222,-63.5497,91.51,48,100,6.64,VE,1715897455
154,qaqortoq,60.7167,-46.0333,35.69,77,54,3.18,GL,1715896914
155,pangody,65.85,74.4859,19.15,91,67,11.12,RU,1715896938
156,boyolangu,-8.1181,111.8935,73.27,95,98,2.53,ID,1715897455
157,lib,8.3122,167.3766,82.69,82,99,20.78,MH,1715897455
158,mukalla,14.5425,49.1242,83.75,75,8,6.87,YE,1715897455
159,mata-utu,-13.2816,-176.1745,82.74,80,100,15.41,WF,1715896936
160,weno,7.4515,151.8468,82.31,80,100,11.95,FM,1715896926
161,greymouth,-42.4667,171.2,51.12,76,93,1.57,NZ,1715897455
162,pisco,-13.7,-76.2167,69.85,78,0,9.22,PE,1715896932
163,labrador city,52.9463,-66.9114,48.11,61,75,3.44,CA,1715897331
164,flying fish cove,-10.4217,105.6791,78.48,88,75,12.66,CX,1715896917
165,asyut,27.181,31.1837,81.14,23,0,11.74,EG,1715897455
166,nianzishan,47.5167,122.8833,57.04,38,79,5.95,CN,1715897455
167,visnjevac,45.5686,18.6139,59.43,77,0,19.57,HR,1715897455
168,ust-nera,64.5667,143.2,36.81,68,76,4.74,RU,1715896909
169,saudarkrokur,65.7461,-19.6394,43.09,90,88,4.59,IS,1715897455
170,atafu village,-8.5421,-172.5159,84.85,78,100,15.12,TK,1715896906
171,dakhla,23.6848,-15.958,66.22,82,0,12.66,EH,1715896927
172,sisimiut,66.9395,-53.6735,27.19,68,6,8.34,GL,1715896631
173,stanley,54.868,-1.6985,51.78,93,100,5.75,GB,1715896914
174,comodoro rivadavia,-45.8667,-67.5,48.06,66,75,9.22,AR,1715897200
175,diego de almagro,-26.3667,-70.05,60.96,47,100,5.68,CL,1715897456
176,bubaque,11.2833,-15.8333,79.63,75,5,17.83,GW,1715896913
177,pago pago,-14.2781,-170.7025,83.21,75,87,20.87,AS,1715896898
178,hasaki,35.7333,140.8333,63.0,50,0,18.14,JP,1715896914
179,troitsko-pechorsk,62.7084,56.1964,39.69,58,100,8.01,RU,1715897456
180,ghadamis,30.1337,9.5007,86.97,27,100,11.05,LY,1715897456
181,mineiros,-17.5694,-52.5511,72.72,57,3,5.82,BR,1715897456
182,mount pearl,47.5166,-52.7813,44.33,94,100,10.36,CA,1715896911
183,queenstown,-31.8976,26.8753,61.36,34,11,7.45,ZA,1715896909
184,kayangel,8.0823,134.7173,82.58,83,100,12.41,PW,1715896919
185,naze,28.3667,129.4833,65.32,61,76,5.35,JP,1715896908
186,berdigestyakh,62.0989,126.6992,37.42,76,100,13.96,RU,1715897456
187,usogorsk,63.4106,48.6872,40.66,100,100,7.0,RU,1715896922
188,kuroiso,36.9667,140.05,56.39,77,5,2.01,JP,1715897456
189,paracuru,-3.41,-39.0306,80.74,80,29,11.27,BR,1715896937
190,nha trang,12.25,109.1833,80.6,90,78,4.23,VN,1715897456
191,constitucion,-35.3333,-72.4167,51.66,74,79,1.07,CL,1715896914
192,brigantine,39.4101,-74.3646,62.8,95,100,12.66,US,1715897456
193,buzuluk,52.7807,52.2635,50.97,85,100,5.99,RU,1715897456
194,safford,32.834,-109.7076,88.72,16,0,19.57,US,1715897456
195,qandala,11.472,49.8728,88.12,69,97,6.55,SO,1715897456
196,sitka,57.0531,-135.33,47.43,83,85,8.59,US,1715896908
197,balimila,18.25,82.1333,76.48,77,100,2.73,IN,1715897457
198,mahajanga,-15.7167,46.3167,75.22,64,0,6.91,MG,1715896911
199,tofol,5.3248,163.0078,82.18,78,100,2.3,FM,1715897457
200,manismata,-2.4667,111.0333,75.45,99,58,2.68,ID,1715897241
201,suez,29.9737,32.5263,69.62,50,0,10.13,EG,1715897457
202,daru,-9.0763,143.2092,79.27,90,100,17.09,PG,1715897419
203,twon-brass,4.3151,6.2418,80.38,83,99,6.11,NG,1715897457
204,behompy,-23.2496,43.8557,70.72,78,0,4.56,MG,1715897457
205,luanda,-8.8368,13.2343,80.6,83,40,6.91,AO,1715896863
206,zaltan,32.947,11.8665,78.67,55,100,10.11,LY,1715897457
207,fruita,39.1589,-108.729,81.75,17,0,9.22,US,1715897457
208,buka,40.8108,69.1986,68.22,68,12,2.28,UZ,1715897457
209,necochea,-38.5473,-58.7368,52.65,76,100,11.25,AR,1715896771
210,shendi,16.6915,33.4341,86.58,8,9,9.95,SD,1715897423
211,borogontsy,62.6683,131.1683,41.09,93,100,13.62,RU,1715896932
212,vizinga,61.0749,50.1031,41.65,96,100,5.64,RU,1715897457
213,newton,42.337,-71.2092,65.64,82,75,16.11,US,1715897457
214,vilyuchinsk,52.9306,158.4028,59.27,65,0,7.54,RU,1715896915
215,bada,51.392,109.8717,40.28,85,100,3.58,RU,1715897457
216,fale old settlement,-9.3852,-171.2468,84.38,79,100,18.72,TK,1715896910
217,sittwe,20.15,92.9,84.7,81,1,8.5,MM,1715896929
218,ushuaia,-54.8,-68.3,44.26,76,40,19.57,AR,1715896852
219,natal,-5.795,-35.2094,79.45,94,75,10.36,BR,1715896918
220,francistown,-21.17,27.5079,57.67,59,0,6.51,BW,1715897457
221,coquimbo,-29.9533,-71.3436,58.73,55,0,12.66,CL,1715896625
222,sao francisco,-15.9486,-44.8644,76.78,39,0,4.94,BR,1715897229
223,nouadhibou,20.931,-17.0347,69.78,64,73,16.11,MR,1715896930
224,mpika,-11.8343,31.4529,58.17,71,58,7.58,ZM,1715897458
225,rikaze,29.25,88.8833,48.99,54,76,0.83,CN,1715897458
226,paita,-5.0892,-81.1144,70.0,77,82,17.34,PE,1715897458
227,labytnangi,66.6572,66.4183,20.37,95,92,8.77,RU,1715896909
228,karaton,-6.3424,106.1045,73.54,96,100,0.13,ID,1715897458
229,palmas,-10.2128,-48.3603,84.07,61,0,4.61,BR,1715897384
230,ravar,31.2656,56.8055,76.62,31,85,9.57,IR,1715897458
231,talara,-4.5772,-81.2719,77.76,65,0,18.19,PE,1715897458
232,kaedi,16.1465,-13.5047,92.73,14,2,10.18,MR,1715897458
233,keflavik,64.0049,-22.5624,43.23,56,75,14.97,IS,1715896911
234,hilo,19.7297,-155.09,88.29,76,20,17.11,US,1715896920
235,sinop,41.7711,34.8709,43.86,77,34,5.77,TR,1715897295
236,yeed,4.55,43.0333,81.72,61,100,20.49,SO,1715897458
237,faya-largeau,17.9257,19.1043,88.05,9,0,13.18,TD,1715896924
238,rosetta,31.4044,30.4164,69.06,66,0,9.26,EG,1715897458
239,vila velha,-20.3297,-40.2925,78.75,90,20,11.5,BR,1715896811
240,safotu,-13.4513,-172.4018,83.79,81,72,22.57,WS,1715897458
241,saint croix,17.7397,-64.7388,80.96,81,31,5.99,VI,1715897458
242,vuktyl,63.8567,57.3094,36.1,84,100,10.0,RU,1715896927
243,mazamari,-11.3258,-74.5308,75.78,85,91,1.63,PE,1715897458
244,as sulayyil,20.4607,45.5779,91.65,22,61,9.35,SA,1715897458
245,portland,45.5234,-122.6762,74.23,53,87,1.99,US,1715896809
246,susuman,62.7833,148.1667,34.99,76,43,3.0,RU,1715897458
247,staroyur'yevo,53.3161,40.7081,42.62,96,24,6.42,RU,1715897458
248,al jawf,29.5,38.75,71.46,25,0,14.47,SA,1715896915
249,arraial do cabo,-22.9661,-42.0278,73.36,100,20,5.75,BR,1715896813
250,touros,-5.1989,-35.4608,79.21,83,29,11.43,BR,1715897459
251,xocali,39.913,46.7903,53.1,100,100,4.0,AZ,1715897459
252,kerikeri,-35.2268,173.9474,59.92,95,44,4.99,NZ,1715896926
253,forde,61.4522,5.8572,65.14,59,90,3.0,NO,1715897459
254,baoro,5.6667,15.9667,75.13,56,94,1.03,CF,1715897459
255,hammerfest,70.6634,23.6821,37.85,87,75,8.05,NO,1715896921
256,colonia,50.9333,6.95,59.94,83,0,1.14,DE,1715896809
257,manaure,11.7751,-72.4445,90.32,56,94,11.59,CO,1715897459
258,egilsstadir,65.2653,-14.3948,44.01,85,50,2.24,IS,1715897459
259,mzimba,-11.9,33.6,57.92,76,35,5.23,MW,1715896934
260,eureka,40.8021,-124.1637,58.57,78,50,8.01,US,1715897426
261,new plymouth,-39.0667,174.0833,51.31,88,0,1.39,NZ,1715897365
262,kurumkan,54.3,110.3,42.13,79,10,5.01,RU,1715897459
263,maloye ganyushkino,46.6,49.2667,56.91,58,48,8.01,KZ,1715896909
264,alice springs,-23.7,133.8833,47.75,81,40,0.0,AU,1715896685
265,cill airne,52.05,-9.5167,53.64,99,100,4.03,IE,1715897460
266,gamay,12.3854,125.2979,78.4,88,80,3.09,PH,1715897460
267,piton saint-leu,-21.2196,55.3151,68.07,59,0,5.75,RE,1715897460
268,soligalich,59.0778,42.2864,53.69,97,71,6.93,RU,1715897460
269,kudahuvadhoo,2.6708,72.8944,84.18,75,100,19.93,MV,1715897460
270,preobrazheniye,42.9019,133.9064,53.65,74,100,6.53,RU,1715897460
271,north bend,43.4065,-124.2243,71.24,77,0,19.57,US,1715897460
272,constantia,44.1833,28.65,45.7,71,73,6.46,RO,1715896862
273,manta,-0.95,-80.7333,79.54,79,88,12.06,EC,1715896931
274,matoury,4.8483,-52.3317,82.36,89,0,4.61,GF,1715897298
275,ust-tsilma,65.441,52.1498,33.62,98,100,8.01,RU,1715897460
276,betim,-19.9678,-44.1983,74.07,56,43,4.0,BR,1715897460
277,gizo,-8.103,156.8419,83.17,80,89,12.75,SB,1715897460
278,vadso,70.0744,29.7487,37.56,75,100,3.44,NO,1715896910
279,saint-philippe,-21.3585,55.7679,64.11,73,61,11.74,RE,1715896906
280,la sarre,48.8002,-79.1996,63.32,41,73,4.23,CA,1715896674
281,alofi,-19.0595,-169.9187,76.89,94,100,14.97,NU,1715896928
282,san jose de jachal,-30.2406,-68.7469,49.6,47,63,4.97,AR,1715897330
283,kelo,9.3086,15.8066,95.79,24,38,7.4,TD,1715897460
284,lorengau,-2.0226,147.2712,80.65,88,99,12.66,PG,1715897460
285,chachapoyas,-6.2317,-77.869,60.62,92,99,2.28,PE,1715897214
286,ta`u,-14.2336,-169.5144,83.66,73,51,21.0,AS,1715896923
287,nadym,65.5333,72.5167,29.97,85,98,13.58,RU,1715896914
288,grand falls-windsor,48.9332,-55.6649,51.51,80,100,7.0,CA,1715896770
289,andratx,39.5755,2.4202,65.41,73,94,11.21,ES,1715897461
290,juneau,58.3019,-134.4197,53.6,82,40,4.61,US,1715897351
291,slave lake,55.2834,-114.769,44.58,93,100,4.61,CA,1715896935
292,gamboma,-1.8764,15.8644,78.04,78,82,4.47,CG,1715897461
293,frontignan,43.4485,3.754,57.15,89,62,6.02,FR,1715897461
294,tekeli,44.83,78.8239,54.27,91,100,2.28,KZ,1715897461
295,vorkuta,67.5,64.0,24.12,94,97,4.0,RU,1715897461
296,funehikimachi-funehiki,37.4333,140.5833,57.74,79,22,4.45,JP,1715897461
297,okhotsk,59.3833,143.3,43.27,74,71,15.41,RU,1715897461
298,takab,36.4009,47.1133,48.29,72,75,2.84,IR,1715897461
299,tanah rata,4.475,101.3704,61.79,99,100,1.23,MY,1715897461
300,kuanda,56.3161,116.0806,37.49,55,59,4.21,RU,1715896920
301,ouallam,14.3188,2.0866,100.81,20,69,11.39,NE,1715897461
302,balti,47.7617,27.9289,48.43,81,9,6.49,MD,1715897461
303,ust'-kut,56.7938,105.7672,33.44,68,100,10.0,RU,1715897461
304,cidreira,-30.1811,-50.2056,52.3,93,100,7.7,BR,1715896925
305,baise city,23.8997,106.6133,76.33,99,98,2.44,CN,1715897461
306,beypore,11.1833,75.8167,79.84,89,40,2.3,IN,1715897462
307,humberto de campos,-2.5983,-43.4611,77.14,95,89,3.06,BR,1715897462
308,kodiak,57.79,-152.4072,42.78,89,100,7.81,US,1715896911
309,itoman,26.1247,127.6694,73.09,67,20,9.22,JP,1715897462
310,rio gallegos,-51.6226,-69.2181,42.64,80,93,7.36,AR,1715897212
311,imbituba,-28.24,-48.6703,66.85,92,100,6.42,BR,1715896928
312,crane,31.3974,-102.3501,89.58,11,0,16.17,US,1715896917
313,sabang,5.8933,95.3214,84.15,77,85,11.79,ID,1715897462
314,wabag,-5.4781,143.7021,59.05,99,100,1.01,PG,1715897462
315,shingu,33.7333,135.9833,60.1,55,0,4.14,JP,1715897462
316,uporovo,56.3109,66.2693,48.96,81,21,8.37,RU,1715897462
317,praia da vitoria,38.7333,-27.0667,64.65,77,20,9.51,PT,1715896906
318,kyzylorda,44.8528,65.5092,71.51,40,48,5.7,KZ,1715897462
319,igarka,67.4667,86.5833,3.02,100,80,4.0,RU,1715896911
320,tual,-5.6667,132.75,82.83,78,53,18.57,ID,1715897241
321,whitehorse,60.7161,-135.0538,57.09,37,75,9.22,CA,1715896798
322,dondaicha,21.3333,74.5667,89.64,41,1,17.47,IN,1715897462
323,san patricio,28.017,-97.5169,89.55,85,91,14.34,US,1715896913
324,lionel town,17.8101,-77.2406,87.69,64,74,10.58,JM,1715897462
325,novodvinsk,64.4165,40.8122,40.78,93,100,6.87,RU,1715896926
326,tromso,69.6496,18.957,42.82,75,75,9.22,NO,1715897356
327,carnarvon,-24.8667,113.6333,72.07,58,0,11.79,AU,1715896906
328,midvagur,62.0511,-7.1939,47.23,93,100,19.57,FO,1715896925
329,ulladulla,-35.35,150.4667,55.74,71,100,3.49,AU,1715897462
330,antofagasta,-23.65,-70.4,60.08,87,49,5.57,CL,1715896721
331,merizo village,13.2658,144.6691,84.97,86,80,16.75,GU,1715897462
332,kailua-kona,19.6406,-155.9956,86.59,73,20,10.36,US,1715897462
333,zhosaly,45.4878,64.0781,68.94,53,80,7.83,KZ,1715897360
334,lompoc,34.6391,-120.4579,78.01,72,0,14.97,US,1715896872
335,vilyuysk,63.7553,121.6247,37.0,96,100,15.01,RU,1715897463
336,val-d'or,48.1002,-77.7828,64.51,37,48,3.78,CA,1715897463
337,muravlenko,63.7898,74.523,30.92,98,100,5.61,RU,1715897463
338,yerofey pavlovich,53.9667,121.9667,41.65,66,79,7.67,RU,1715896925
339,suva,-18.1416,178.4415,80.08,89,40,3.44,FJ,1715896906
340,port lincoln,-34.7333,135.8667,57.96,85,0,8.61,AU,1715897463
341,bara,10.3744,10.7288,83.89,64,52,13.8,NG,1715897463
342,casper,42.8666,-106.3131,75.72,21,0,12.66,US,1715897236
343,taulaga,-11.0553,-171.0883,84.58,78,87,21.94,AS,1715897463
344,haiku-pauwela,20.9219,-156.3051,83.25,81,24,4.0,US,1715896915
345,visakhapatnam,17.69,83.2093,81.99,64,100,3.89,IN,1715897463
346,lidkoping,58.5052,13.1577,55.42,59,10,9.26,SE,1715897463
347,pangkalanbuun,-2.6833,111.6167,75.42,100,94,1.72,ID,1715897463
348,opuwo,-18.0607,13.84,64.38,29,0,8.79,NA,1715897463
349,okahao,-17.885,15.0667,65.82,30,0,9.93,NA,1715897463
350,mount isa,-20.7333,139.5,67.77,52,2,8.05,AU,1715896911
351,wamba,8.9333,8.6,69.53,98,99,11.97,NG,1715897360
352,recani,31.2846,-4.2688,80.49,11,0,10.63,MA,1715897463
353,kigorobya,1.6162,31.3089,69.82,78,22,2.95,UG,1715897463
354,urangan,-25.3,152.9,64.2,96,5,7.0,AU,1715897463
355,bhadasar,28.2833,74.3167,93.33,13,2,10.2,IN,1715897463
356,pingzhuang,42.0372,119.2889,57.94,38,3,4.29,CN,1715897463
357,dunedin,-45.8742,170.5036,49.8,63,31,3.0,NZ,1715897199
358,zaozersk,69.4005,32.4476,33.91,86,96,2.3,RU,1715897464
359,mohammedia,33.7066,-7.3944,64.53,77,0,7.11,MA,1715897464
360,talnakh,69.4865,88.3972,2.75,97,94,2.44,RU,1715896916
361,lexington,37.9887,-84.4777,79.34,56,0,8.05,US,1715897456
362,kununurra,-15.7667,128.7333,71.58,73,79,3.44,AU,1715897337
363,iskateley,67.6803,53.1512,18.39,97,61,8.46,RU,1715896915
364,chonchi,-42.6128,-73.8092,50.13,94,100,1.72,CL,1715896899
365,hami,42.8,93.45,79.47,17,31,10.74,CN,1715897464
366,port alfred,-33.5906,26.891,59.18,86,56,3.0,ZA,1715896916
367,acarau,-2.8856,-40.12,81.0,77,72,13.98,BR,1715897284
368,brooks,50.5834,-111.8851,71.04,38,31,17.65,CA,1715897300
369,redlands,34.0556,-117.1825,94.93,56,0,8.08,US,1715897464
370,sumbe,-11.2061,13.8437,75.94,88,22,3.24,AO,1715897464
371,bathsheba,13.2167,-59.5167,82.51,78,23,14.88,BB,1715897464
372,pokhara,28.2333,83.9833,71.82,33,22,8.61,NP,1715896923
373,mabaruma,8.2,-59.7833,80.73,79,100,5.1,GY,1715897464
374,saurimo,-9.6608,20.3916,65.28,49,1,5.57,AO,1715897464
375,mahina,-17.5065,-149.489,85.77,62,75,10.36,PF,1715897464
376,vila franca do campo,37.7167,-25.4333,64.89,99,33,4.83,PT,1715896932
377,keetmanshoop,-26.5833,18.1333,68.92,26,0,8.05,NA,1715896927
378,cabo san lucas,22.8909,-109.9124,88.61,39,0,6.91,MX,1715897430
379,amursk,50.2261,136.8994,54.99,62,0,2.1,RU,1715897465
380,vernon,50.2581,-119.2691,73.76,39,83,11.5,CA,1715896913
381,brisas de zicatela,15.8369,-97.0419,86.79,64,25,7.7,MX,1715896929
382,quepos,9.4236,-84.1652,81.45,82,100,3.11,CR,1715896935
383,atbasar,51.8,68.3333,49.23,58,45,7.18,KZ,1715897465
384,kirgiz-miyaki,53.6324,54.7979,48.42,70,100,3.38,RU,1715897465
385,cutral-co,-38.9469,-69.2089,49.91,10,26,1.99,AR,1715897465
386,deniliquin,-35.5333,144.9667,51.82,79,53,3.29,AU,1715897465
387,san juan,-31.5375,-68.5364,54.55,44,2,8.57,AR,1715896845
388,tazovsky,67.4667,78.7,0.7,99,84,5.75,RU,1715896911
389,dickinson,29.4608,-95.0513,83.16,87,100,14.97,US,1715896913
390,terenozek,45.05,64.9833,69.71,52,92,5.5,KZ,1715897465
391,inarajan village,13.2736,144.7484,85.39,86,78,17.07,GU,1715897465
392,kzyltu,53.6364,72.3414,49.05,32,27,7.36,KZ,1715897465
393,vilhena,-12.7406,-60.1458,76.91,63,39,2.26,BR,1715897466
394,laguna,38.421,-121.4238,85.14,46,0,11.5,US,1715896931
395,fisterra,42.9049,-9.2629,52.75,73,41,9.33,ES,1715896927
396,baoding,38.8511,115.4903,64.09,43,0,10.69,CN,1715897458
397,el nido,11.1858,119.3956,83.75,75,15,9.78,PH,1715897466
398,talcahuano,-36.7167,-73.1167,51.28,76,2,1.21,CL,1715897466
399,taltal,-25.4,-70.4833,59.56,84,86,3.31,CL,1715897466
400,veraval,20.9,70.3667,82.85,80,20,15.35,IN,1715897466
401,tucurui,-3.7661,-49.6725,81.55,78,73,2.86,BR,1715897466
402,tabou,4.423,-7.3528,79.45,89,100,6.42,CI,1715897466
403,aur,8.1499,171.1687,82.17,83,57,19.15,MH,1715897466
404,sinabang,2.4803,96.3801,79.66,86,100,3.18,ID,1715896914
405,hirara,24.8,125.2833,76.71,65,88,10.89,JP,1715897466
406,udomlya,57.8794,34.9925,52.0,92,96,5.91,RU,1715897466
407,arawa,-6.2132,155.5367,83.32,79,61,0.56,PG,1715897466
408,kingston,17.997,-76.7936,88.75,70,20,14.97,JM,1715896908
409,tazacorte,28.629,-17.9293,68.97,86,100,6.91,ES,1715896910
410,aegina,37.7467,23.4275,67.71,77,78,1.74,GR,1715897466
411,chernyshevskiy,63.0128,112.4714,28.2,74,86,11.68,RU,1715896914
412,whakatane,-37.9585,176.9854,57.88,86,7,5.99,NZ,1715897466
413,porto novo,6.4965,2.6036,76.91,88,100,5.44,BJ,1715897374
414,rexburg,43.826,-111.7897,75.0,30,0,21.85,US,1715897228
415,karungdong,5.8844,121.263,81.84,81,18,3.76,PH,1715897466
416,ghazni,33.5536,68.4269,58.62,60,11,8.23,AF,1715897466
417,ciudad lazaro cardenas,17.9583,-102.2,84.11,56,0,11.72,MX,1715897183
418,poso,-1.3959,120.7524,77.83,83,83,4.63,ID,1715897467
419,puerto pilon,9.3644,-79.7933,86.77,84,100,2.13,PA,1715897467
420,bandarbeyla,9.4942,50.8122,84.18,80,70,12.17,SO,1715896938
421,al harithah,30.7186,47.7208,80.56,54,0,6.91,IQ,1715897467
422,brody,50.0879,25.1503,44.26,90,1,7.96,UA,1715897467
423,edd,13.9297,41.6925,84.27,81,6,9.51,ER,1715897467
424,kashgar,39.4547,75.9797,72.3,16,72,6.26,CN,1715897467
425,apt,43.8833,5.4,46.69,86,46,1.88,FR,1715897467
426,huarmey,-10.0681,-78.1522,69.48,79,63,11.61,PE,1715896919
427,geraldton,-28.7667,114.6,66.61,39,0,16.11,AU,1715897467
428,sechura,-5.5569,-80.8222,74.5,65,62,16.96,PE,1715897467
429,yuxi,24.355,102.5422,62.47,94,81,3.53,CN,1715897467
430,san luis de la loma,17.2706,-100.8939,86.41,60,70,9.6,MX,1715896916
431,christchurch,-43.5333,172.6333,51.91,77,16,8.01,NZ,1715897184
432,sandersville,32.9815,-82.8101,85.87,50,5,3.0,US,1715897467
433,kayyerkan,69.3786,87.7439,3.34,99,100,1.54,RU,1715897467
434,ayaviri,-14.8864,-70.5889,54.55,54,91,4.43,PE,1715897467
435,soroca,48.1558,28.2975,42.4,87,12,4.83,MD,1715897468
436,coeur d'alene,47.6777,-116.7805,76.87,32,20,18.41,US,1715897468
437,glace bay,46.1969,-59.957,58.26,85,100,3.0,CA,1715897468
438,carauari,-4.8828,-66.8958,77.86,92,42,2.98,BR,1715897468
439,bela,25.9333,81.9833,90.12,17,2,2.01,IN,1715897468
440,tucupita,9.0622,-62.051,87.82,56,97,5.37,VE,1715897468
441,santa vitoria do palmar,-33.5189,-53.3681,49.17,81,100,4.76,BR,1715897194
442,pionerskiy,54.9508,20.2275,50.14,75,5,10.87,RU,1715897468
443,dar chioukh,34.8964,3.4854,61.52,35,10,3.22,DZ,1715897468
444,olsztyn,53.7799,20.4942,55.36,77,1,8.59,PL,1715897468
445,kastsyukowka,52.5387,30.9173,46.83,60,99,5.19,BY,1715897468
446,nagqu,31.5,92.0,36.5,75,100,1.83,CN,1715896912
447,cape coast,5.1053,-1.2466,76.75,90,100,16.62,GH,1715897468
448,masterton,-40.9597,175.6575,52.88,75,3,5.57,NZ,1715897184
449,la rinconada,37.4873,-5.9826,64.58,77,0,9.22,ES,1715897468
450,itajuba,-22.4256,-45.4528,74.75,78,100,3.38,BR,1715897457
451,nuuk,64.1835,-51.7216,36.21,64,20,16.11,GL,1715896910
452,ughelli,5.4899,6.0074,74.44,97,100,1.92,NG,1715897468
453,bel ombre,-4.6167,55.4167,80.44,94,75,9.22,SC,1715896933
454,olyokminsk,60.3736,120.4264,37.31,69,91,16.75,RU,1715896927
455,fuglafjordur,62.244,-6.814,46.87,94,99,8.32,FO,1715897468
456,mariental,-24.6333,17.9667,67.62,28,0,9.44,NA,1715897468
457,sapele,5.8941,5.6767,74.26,94,90,0.09,NG,1715897469
458,lyepyel',54.8814,28.6932,52.48,85,97,6.42,BY,1715897469
459,tomaszow mazowiecki,51.5313,20.0086,59.22,67,1,15.01,PL,1715897469
460,cabedelo,-6.9811,-34.8339,81.27,78,12,12.95,BR,1715897469
461,luderitz,-26.6481,15.1594,70.57,47,0,6.64,NA,1715896926
462,kimbe,-5.5502,150.1429,80.04,85,60,3.62,PG,1715897469
463,saint-pierre,-21.3393,55.4781,64.18,59,0,5.75,RE,1715897469
464,valparaiso,-33.0393,-71.6273,57.0,55,0,5.75,CL,1715897409
465,kribi,2.95,9.9167,80.64,89,100,5.73,CM,1715897469
466,wewak,-3.5534,143.6268,77.02,94,100,5.77,PG,1715897469
467,gorgan,36.8387,54.4348,62.98,92,45,4.32,IR,1715897469
468,quibala,-10.7337,14.98,62.11,56,30,3.71,AO,1715897469
469,lago da pedra,-4.3333,-45.1667,77.0,94,82,4.56,BR,1715897469
470,cockburn town,21.4612,-71.1419,80.85,77,0,7.94,TC,1715897469
471,mariehamn,60.0973,19.9348,53.46,66,0,4.61,AX,1715897469
472,perros-guirec,48.8145,-3.4396,56.64,87,84,6.8,FR,1715897469
473,east ballina,-28.8667,153.5833,61.81,83,93,2.75,AU,1715897469
474,jinghong,21.991,100.7341,69.1,94,27,1.16,CN,1715897469
475,isna,25.2934,32.554,81.5,20,0,14.58,EG,1715897470
476,rock springs,41.5875,-109.2029,73.24,25,20,21.85,US,1715897320
477,asau,46.4333,26.4,49.08,87,67,2.66,RO,1715897470
478,genhe,50.7833,121.5167,53.83,64,100,2.73,CN,1715897470
479,abepura,-2.6333,140.5833,79.61,94,40,1.14,ID,1715897470
480,lincheng,19.9078,109.6858,73.33,85,16,7.23,CN,1715897470
481,orlovskiy,46.8714,42.0592,48.69,61,74,6.17,RU,1715897470
482,malango,-2.9627,119.9001,66.72,100,96,1.79,ID,1715897470
483,codrington,-38.2667,141.9667,51.51,97,50,7.65,AU,1715896917
484,alaghsas,17.0187,8.0168,91.89,12,6,12.15,NE,1715896908
485,pailitas,8.9565,-73.6255,84.2,84,94,3.42,CO,1715897470
486,saint-joseph,-21.3667,55.6167,63.1,72,55,12.55,RE,1715897470
487,verkhnevilyuysk,63.4453,120.3167,33.58,97,100,15.59,RU,1715897470
488,san pedro pochutla,15.7333,-96.4667,91.11,49,44,9.48,MX,1715896922
489,luwuk,-0.9516,122.7875,73.65,87,99,4.5,ID,1715897241
490,lospalos,-8.5186,127.0025,72.16,98,99,5.37,TL,1715897470
491,butha-buthe,-28.8333,28.5,43.45,52,0,3.85,LS,1715897470
492,impfondo,1.6381,18.0667,77.54,75,83,3.71,CG,1715897470
493,burang,30.25,81.1667,33.91,81,16,1.81,CN,1715896923
494,waingapu,-9.6567,120.2641,76.05,91,73,9.04,ID,1715897470
495,kokopo,-4.352,152.2633,80.91,82,40,6.38,PG,1715896931
496,maralal,1.0968,36.698,60.58,84,63,2.73,KE,1715897470
497,ifakara,-8.1333,36.6833,69.08,83,74,2.21,TZ,1715897470
498,mugia,43.1041,-9.2179,52.92,79,20,8.05,ES,1715897471
499,kirakira,-10.4544,161.9205,83.32,78,100,11.63,SB,1715896913
500,ust'-ilimsk,58.0006,102.6619,32.43,70,100,8.99,RU,1715897471
501,mantsala,60.6609,25.2838,60.48,61,30,5.68,FI,1715897471
502,yinzhu,35.8786,119.9753,62.28,75,42,11.43,CN,1715897471
503,monticello,45.3055,-93.7941,71.11,53,75,11.5,US,1715897471
504,khandyga,62.6667,135.6,45.97,82,100,9.8,RU,1715896926
505,broome,42.2506,-75.833,71.71,74,40,10.36,US,1715896924
506,kayenta,36.7278,-110.2546,70.75,18,0,12.17,US,1715897471
507,webster,42.0501,-71.8801,64.47,84,100,1.99,US,1715897265
508,dampit,-8.2116,112.7493,69.62,96,99,3.11,ID,1715897471
509,puerto aysen,-45.4,-72.7,42.33,95,99,0.54,CL,1715896703
510,trat,12.5,102.5,77.68,95,98,1.79,TH,1715897471
511,zhanaozen,43.3,52.8,62.1,43,55,14.54,KZ,1715896937
512,west bay,19.3667,-81.4167,89.08,69,20,11.5,KY,1715897471
513,golyshmanovo,56.3979,68.3728,44.56,75,4,8.79,RU,1715897471
514,doka,13.5167,35.7667,89.85,12,4,7.16,SD,1715896909
515,zalesovo,53.9939,84.7431,39.79,72,1,4.43,RU,1715897471
516,minab,27.1467,57.0801,86.56,40,0,1.92,IR,1715897471
517,tolanaro,-25.0319,46.9987,71.67,94,40,11.5,MG,1715896928
518,klaksvik,62.2266,-6.589,47.32,95,99,7.83,FO,1715896931
519,buon ma thuot,12.6667,108.05,71.49,98,100,3.62,VN,1715897471
520,lesogorsk,56.0458,99.5136,37.92,54,99,4.0,RU,1715897471
521,quellon,-43.1167,-73.6167,47.26,88,100,6.13,CL,1715896677
522,rongelap,11.1635,166.8941,81.39,82,100,18.75,MH,1715896923
523,sola,-13.8833,167.55,80.92,79,100,25.39,VU,1715897471
524,mwinilunga,-11.7358,24.4293,56.95,62,3,4.43,ZM,1715897472
525,lampazos de naranjo,27.0167,-100.5167,104.95,9,11,10.29,MX,1715897472
526,martuk,50.7475,56.5056,47.32,89,91,5.19,KZ,1715897472
527,oroshaza,46.5667,20.6667,57.94,74,88,7.92,HU,1715897472
528,victorica,-36.2151,-65.4359,51.71,38,1,10.67,AR,1715897472
529,nova vicosa,-17.8919,-39.3719,77.02,82,1,5.68,BR,1715897472
530,kavieng,-2.5744,150.7967,83.61,79,75,9.71,PG,1715897472
531,nurota,40.5614,65.6886,67.8,65,45,6.76,UZ,1715897472
532,neiafu,-18.65,-173.9833,81.28,89,75,11.5,TO,1715897472
533,piti village,13.4626,144.6933,85.3,83,40,14.97,GU,1715897472
534,ridder,50.355,83.5133,49.75,89,99,3.04,KZ,1715897472
535,lazaro cardenas,17.9583,-102.2,84.11,56,0,11.72,MX,1715896916
536,hamilton,39.1834,-84.5333,80.8,55,98,4.0,US,1715896852
537,pampa del indio,-26.0647,-59.919,56.79,79,100,4.29,AR,1715897472
538,okha,53.5739,142.9478,51.26,61,0,11.99,RU,1715897176
539,san jose,37.3394,-121.895,84.76,47,0,14.97,US,1715897174
540,wayne,42.2506,-83.2833,79.11,59,75,12.66,US,1715897328
541,yaren,-0.5472,166.916,84.04,76,80,10.8,NR,1715897472
542,el granada,37.5027,-122.4694,81.07,73,100,9.22,US,1715896929
543,puerto francisco de orellana,-0.4667,-76.9667,77.05,94,75,4.61,EC,1715897472
544,thinadhoo,0.5333,72.9333,83.44,76,100,20.54,MV,1715897472
545,galle,6.0367,80.217,78.49,90,100,5.66,LK,1715897473
546,alenquer,-1.9417,-54.7383,77.99,93,100,4.32,BR,1715897473
547,emerald,-23.5333,148.1667,64.35,80,2,10.33,AU,1715897473
548,erdenet,49.0333,104.0833,42.48,67,98,4.56,MN,1715897473
549,choa saidan shah,32.7201,72.9849,78.82,23,0,9.15,PK,1715897473
550,middelburg,-25.7751,29.4648,56.75,39,0,4.43,ZA,1715897473
551,beau vallon,-20.4189,57.6953,71.22,63,98,14.54,MU,1715897473
552,yuzhno-kurilsk,44.0306,145.8556,46.38,92,100,8.86,RU,1715896918
553,phan rang-thap cham,11.5667,108.9833,77.5,90,100,3.96,VN,1715897473
554,walvis bay,-22.9575,14.5053,76.08,40,0,9.06,NA,1715896915
555,antonio enes,-16.2325,39.9086,75.13,84,1,5.37,MZ,1715897473
556,xining,36.6167,101.7667,54.46,67,100,2.57,CN,1715897473
557,vieste,41.8825,16.175,69.66,76,79,8.41,IT,1715897473
558,aykhal,66.0,111.5,20.84,94,100,18.81,RU,1715896924
559,kingscliff,-28.2667,153.5667,65.77,94,40,8.05,AU,1715897473
560,spassk,52.747,87.7545,41.76,91,98,3.0,RU,1715897473
561,kiunga,-6.1219,141.2906,75.33,99,100,0.83,PG,1715897473
562,la'ie,21.6477,-157.9253,78.76,93,80,4.0,US,1715896928
563,rawah,34.4816,41.9093,77.9,20,51,8.99,IQ,1715897473
564,devils lake,48.1128,-98.8651,69.94,43,40,9.22,US,1715897439
565,fort mcmurray,56.7268,-111.381,51.39,81,40,13.8,CA,1715896683
566,auki,-8.7676,160.7034,77.45,93,100,3.49,SB,1715896934
567,bria,6.5423,21.9863,77.43,63,6,3.02,CF,1715896914
568,turpan,42.9333,89.1667,88.23,17,92,4.41,CN,1715897474
569,mancio lima,-7.6142,-72.8958,77.16,95,100,2.68,BR,1715897474
570,dryden,49.7833,-92.7503,48.49,93,100,5.75,CA,1715896905
571,mont-de-marsan,44.0,-0.6667,56.68,87,0,1.14,FR,1715897474
572,tomatlan,19.9333,-105.25,90.88,35,0,11.79,MX,1715896933
573,nova sintra,14.8667,-24.7167,72.97,78,29,16.4,CV,1715896910
574,constantina,36.365,6.6147,58.41,82,0,6.91,DZ,1715897474
575,baymak,52.5933,58.3225,46.76,93,100,2.19,RU,1715897474
576,greenville,35.6127,-77.3663,80.55,57,40,5.75,US,1715897348
577,northam,51.0333,-4.2167,55.62,91,97,4.43,GB,1715896935
578,grand baie,-20.0182,57.5802,71.46,77,90,1.99,MU,1715897474
579,bermeo,43.4209,-2.7215,56.59,89,98,3.38,ES,1715896933
580,markovo,57.3206,107.0881,32.7,85,100,7.92,RU,1715897474
581,gassol,8.5333,10.4667,79.3,79,100,3.85,NG,1715897474
582,clanton,32.8387,-86.6294,84.52,55,4,3.0,US,1715897474
583,sibolga,1.7427,98.7792,77.59,90,100,2.42,ID,1715897475
584,balaipungut,1.05,101.2833,73.81,99,100,4.0,ID,1715897475
585,zmiyevka,52.6697,36.3739,52.05,77,100,10.27,RU,1715897475
586,porbandar,21.6422,69.6093,82.85,78,10,14.61,IN,1715897475
587,mezhdurechensk,53.6942,88.0603,36.41,79,1,2.62,RU,1715897475
588,griffith,41.5284,-87.4237,72.34,92,100,10.36,US,1715897475
589,ar rass,25.8694,43.4973,85.26,33,1,10.42,SA,1715897475
590,tongliao,43.6125,122.2653,58.57,31,2,10.2,CN,1715897475
591,kindia,10.0569,-12.8658,77.61,84,85,3.83,GN,1715897475
592,cherdyn',60.403,56.4787,43.83,97,100,4.68,RU,1715897475
593,yakeshi,49.2833,120.7333,59.77,39,94,5.59,CN,1715897475
594,tralee,52.2704,-9.7026,53.58,98,100,3.42,IE,1715896926
595,gebeit,21.0667,36.3167,75.13,34,2,3.96,SD,1715897475
596,ciudad del este,-25.5167,-54.6167,72.57,94,0,3.44,PY,1715897199
